name,lat,lon,transport,accessibility,picture
Licht und Luftbad Müggelsee, 52.446309, 13.67013,True,good,figs/launch_lichluftbad.jpg
Anleger Köpenick, 52.445685, 13.573238,True,moderate,figs/anleger_koepenick.jpg
Müggelpark Friedrichshagen, 52.444109, 13.628138,True,good,figs/mueggelpark.jpg
Anleger Rummelsburger Bucht, 52.495601, 13.4806,True,good,fig/anleger_rummelsburg.jpg
Bammelecke, 52.405757, 13.623889,True,good,fig/bammelecke.jpg
Rathauspark Erkner, 52.424548, 13.750307,True,good,fig/rathauspark_erkner.jpg